ID,STATE_NAME,COUNTY,CITY,LATITUDE,LONGITUDE
1942,California,"Del Norte","Crescent City",41.785402,-124.178448
2072,California,"Del Norte","Fort Dick",41.8382,-124.166
2092,California,"Del Norte",Gasquet,41.862768,-123.912467
2223,California,"Del Norte",Klamath,41.542075,-124.033907
2720,California,"Del Norte","Smith River",41.936218,-124.166115
